{"offices": [{"address": "Bololmala\nTupi, South Cotabato\n9505", "id": "bololmala", "image": "", "lat": 6.3916, "lng": 124.92, "name": "Bololmala", "phone": "", "region": "asia-pacific"}, {"address": "San Pablo\nSta. Ana, Pampanga\n2022", "id": "sanpablo", "image": "", "lat": 15.0693, "lng": 120.7374, "name": "San Pablo", "phone": "", "region": "asia-pacific"}, {"address": "Santo Domingo\nSto. Tomas, Pangasinan\n2020", "id": "santodomingo", "image": "", "lat": 15.862345, "lng": 120.577509, "name": "Santo Domingo", "phone": "", "region": "asia-pacific"}, {"address": "Tubigagmanok\nAsturias, Cebu\n6042", "id": "tubigagmanok", "image": "", "lat": 10.6096, "lng": 123.745, "name": "Tubigagmanok", "phone": "", "region": "asia-pacific"}, {"address": "Carpenter Hill, Purok Pag-Asa\nKoronadal City, South Cotabato\n9506", "id": "purokpagasa", "image": "", "lat": 6.46297, "lng": 124.878727, "name": "Purok Pag-Asa", "phone": "", "region": "asia-pacific"}, {"address": "Batong Malaki\nLos Banos, Laguna\n 4031", "id": "losbanos", "image": "", "lat": 14.165342, "lng": 121.241932, "name": "UPLB", "phone": "", "region": "asia-pacific"}, {"address": "Brgy. San Pablo,\nSta. Ana, \nPampanga", "id": "sanpablostaana", "image": "", "lat": 15.0677, "lng": 120.7316, "name": "San Pablo", "phone": "", "region": "asia-pacific"}, {"address": "Brgy. San Antonio,\nSanto Tomas,\nPangasinan", "id": "sanantonio", "image": "", "lat": 15.8707, "lng": 120.5806, "name": "San Antonio", "phone": "", "region": "asia-pacific"}, {"address": "Brgy. Tinago,\nDauis,\nBohol", "id": "tinago", "image": "", "lat": 9.6122, "lng": 123.8143, "name": "Brgy. Tinago", "phone": "", "region": "asia-pacific"}, {"address": "Brgy. Poblacion East,\nSto. Tomas,\nPangasinan", "id": "poblacioneast", "image": "", "lat": 15.8851, "lng": 120.5843, "name": "Poblacion East", "phone": "", "region": "asia-pacific"}, {"address": "Brgy. Montecillo\nSariaya, Quezon", "id": "montecillo", "image": "", "lat": 13.8874, "lng": 121.4770, "name": "Brgy. Montecillo", "phone": "", "region": "asia-pacific"}, {"address": "Brgy. San Felipe\nIlagan, Isabela", "id": "sanfelipe", "image": "", "lat": 17.1166, "lng": 121.8776, "name": "San Felipe", "phone": "", "region": "asia-pacific"},{"address": "Brgy. Annanuman,\nSan Pablo, Isabela", "id": "annanuman", "image": "", "lat": 17.4295, "lng": 121.8227, "name": "Brgy. Annanuman", "phone": "", "region": "asia-pacific"}, {"address": "Barangay Tapel\nGonzaga, Cagayan", "id": "tapel", "image": "", "lat": 18.2914, "lng": 122.0332, "name": "Brgy. Tapel", "phone": "", "region": "asia-pacific"}, {"address": "Brgy. Pangatlan,\nMexico, Pampanga", "id": "pangatlan", "image": "", "lat": 15.1122, "lng": 120.6836, "name": "Brgy. Pangatlan", "phone": "", "region": "asia-pacific"}], "regions": [{"coords": {"lat": 2.9660291, "lng": 1.3271339}, "id": "africa-middle-east", "name": "Africa & Middle East", "zoom": 3.0}, {"coords": {"lat": 0.0524811, "lng": 127.6560787}, "id": "asia-pacific", "name": "Asia Pacific", "zoom": 3.0}, {"coords": {"lat": 46.1352815, "lng": 7.4033438}, "id": "europe", "name": "Europe", "zoom": 4.0}, {"coords": {"lat": -17.5554497, "lng": -99.2316195}, "id": "latin-america", "name": "Latin America", "zoom": 3.0}, {"coords": {"lat": 45.7128252, "lng": -97.1547448}, "id": "north-america", "name": "North America", "zoom": 4.0}]}